manual_saver
BREAD,$GPRMC,090639.000,A,3907.6472,N,08431.6061,W,0.08,220.63,040120,,,A*76

BREAD,$GPRMC,090640.000,A,3907.6472,N,08431.6061,W,0.06,171.89,040120,,,A*75

BREAD,$GPRMC,090641.000,A,3907.6472,N,08431.6061,W,0.15,169.58,040120,,,A*73

BREAD,$GPRMC,090642.000,A,3907.6471,N,08431.6061,W,0.17,158.41,040120,,,A*7B

BREAD,$GPRMC,090643.000,A,3907.6471,N,08431.6061,W,0.08,238.37,040120,,,A*70

BREAD,$GPRMC,090644.000,A,3907.6470,N,08431.6061,W,0.09,218.81,040120,,,A*78

BREAD,$GPRMC,090645.000,A,3907.6470,N,08431.6061,W,0.23,235.74,040120,,,A*74

BREAD,$GPRMC,090646.000,A,3907.6470,N,08431.6062,W,0.15,202.43,040120,,,A*71

BREAD,$GPRMC,090647.000,A,3907.6469,N,08431.6062,W,0.20,187.82,040120,,,A*7D

BREAD,$GPRMC,090648.000,A,3907.6469,N,08431.6063,W,0.05,67.42,040120,,,A*47

BREAD,$GPRMC,090649.000,A,3907.6469,N,08431.6062,W,0.08,193.32,040120,,,A*77

BREAD,$GPRMC,090651.000,A,3907.6468,N,08431.6063,W,0.19,239.63,040120,,,A*79

BREAD,$GPRMC,090652.000,A,3907.6468,N,08431.6064,W,0.14,280.05,040120,,,A*72

BREAD,$GPRMC,090653.000,A,3907.6468,N,08431.6064,W,0.10,287.22,040120,,,A*75

BREAD,$GPRMC,090654.000,A,3907.6468,N,08431.6065,W,0.08,266.06,040120,,,A*73

BREAD,$GPRMC,090655.000,A,3907.6468,N,08431.6065,W,0.03,356.08,040120,,,A*75

BREAD,$GPRMC,090656.000,A,3907.6468,N,08431.6065,W,0.06,72.82,040120,,,A*44

BREAD,$GPRMC,090657.000,A,3907.6468,N,08431.6065,W,0.08,188.35,040120,,,A*73

BREAD,$GPRMC,090658.000,A,3907.6467,N,08431.6065,W,0.19,164.77,040120,,,A*77

BREAD,$GPRMC,090659.000,A,3907.6467,N,08431.6065,W,0.13,170.39,040120,,,A*73

BREAD,$GPRMC,090700.000,A,3907.6466,N,08431.6065,W,0.09,158.33,040120,,,A*74

BREAD,$GPRMC,090701.000,A,3907.6466,N,08431.6065,W,0.15,204.55,040120,,,A*72

BREAD,$GPRMC,090702.000,A,3907.6465,N,08431.6065,W,0.26,240.67,040120,,,A*73

BREAD,$GPRMC,090703.000,A,3907.6465,N,08431.6066,W,0.11,272.15,040120,,,A*71

BREAD,$GPRMC,090704.000,A,3907.6465,N,08431.6066,W,0.14,189.53,040120,,,A*76

BREAD,$GPRMC,090705.000,A,3907.6465,N,08431.6066,W,0.17,177.67,040120,,,A*72

BREAD,$GPRMC,090706.000,A,3907.6464,N,08431.6066,W,0.20,155.28,040120,,,A*7F
BREAD,$GPRMC,090707.000,A,3907.6464,N,08431.6066,W,0.14,166.32,040120,,,A*72

BREAD,$GPRMC,090709.000,A,3907.6463,N,08431.6066,W,0.19,211.91,040120,,,A*7C

BREAD,$GPRMC,090710.000,A,3907.6462,N,08431.6067,W,0.21,188.83,040120,,,A*7F
BREAD,$GPRMC,090711.000,A,3907.6461,N,08431.6067,W,0.41,214.83,040120,,,A*7D

BREAD,$GPRMC,090712.000,A,3907.6461,N,08431.6068,W,0.38,228.10,040120,,,A*7A

BREAD,$GPRMC,090713.000,A,3907.6460,N,08431.6069,W,0.30,232.15,040120,,,A*7D

BREAD,$GPRMC,090714.000,A,3907.6459,N,08431.6070,W,0.25,211.17,040120,,,A*7F

BREAD,$GPRMC,090715.000,A,3907.6459,N,08431.6070,W,0.25,230.45,040120,,,A*7A

BREAD,$GPRMC,090716.000,A,3907.6458,N,08431.6071,W,0.05,241.01,040120,,,A*7D
BREAD,$GPRMC,090717.000,A,3907.6458,N,08431.6071,W,0.06,1.80,040120,,,A*70

BREAD,$GPRMC,090718.000,A,3907.6458,N,08431.6071,W,0.05,204.71,040120,,,A*75

BREAD,$GPRMC,090719.000,A,3907.6458,N,08431.6071,W,0.16,275.82,040120,,,A*7C

BREAD,$GPRMC,090720.000,A,3907.6458,N,08431.6072,W,0.18,253.09,040120,,,A*7C

BREAD,$GPRMC,090721.000,A,3907.6458,N,08431.6072,W,0.15,236.20,040120,,,A*78
BREAD,$GPRMC,090722.000,A,3907.6458,N,08431.6073,W,0.13,178.24,040120,,,A*71

BREAD,$GPRMC,090723.000,A,3907.6457,N,08431.6073,W,0.15,170.60,040120,,,A*71

BREAD,$GPRMC,090724.000,A,3907.6457,N,08431.6073,W,0.08,218.18,040120,,,A*78
BREAD,$GPRMC,090725.000,A,3907.6457,N,08431.6073,W,0.07,218.17,040120,,,A*79

BREAD,$GPRMC,090726.000,A,3907.6457,N,08431.6073,W,0.10,346.19,040120,,,A*78

BREAD,$GPRMC,090727.000,A,3907.6457,N,08431.6074,W,0.17,314.30,040120,,,A*75

BREAD,$GPRMC,090728.000,A,3907.6457,N,08431.6074,W,0.10,24.62,040120,,,A*4A

BREAD,$GPRMC,090729.000,A,3907.6458,N,08431.6074,W,0.08,13.47,040120,,,A*4E

BREAD,$GPRMC,090730.000,A,3907.6458,N,08431.6074,W,0.09,86.73,040120,,,A*4C

BREAD,$GPRMC,090731.000,A,3907.6458,N,08431.6074,W,0.10,107.82,040120,,,A*73

BREAD,$GPRMC,090732.000,A,3907.6458,N,08431.6074,W,0.07,300.75,040120,,,A*7B

BREAD,$GPRMC,090733.000,A,3907.6458,N,08431.6074,W,0.02,39.41,040120,,,A*41
BREAD,$GPRMC,090734.000,A,3907.6458,N,08431.6074,W,0.12,14.47,040120,,,A*4E

BREAD,$GPRMC,090735.000,A,3907.6458,N,08431.6074,W,0.13,353.37,040120,,,A*79

BREAD,$GPRMC,090736.000,A,3907.6458,N,08431.6074,W,0.19,345.09,040120,,,A*7A

BREAD,$GPRMC,090737.000,A,3907.6459,N,08431.6074,W,0.21,325.24,040120,,,A*78

BREAD,$GPRMC,090738.000,A,3907.6459,N,08431.6074,W,0.08,341.51,040120,,,A*7C

BREAD,$GPRMC,090739.000,A,3907.6459,N,08431.6074,W,0.09,1.15,040120,,,A*7B

BREAD,$GPRMC,090740.000,A,3907.6460,N,08431.6074,W,0.10,358.81,040120,,,A*75

BREAD,$GPRMC,090741.000,A,3907.6460,N,08431.6075,W,0.10,107.10,040120,,,A*75

BREAD,$GPRMC,090742.000,A,3907.6460,N,08431.6074,W,0.20,80.94,040120,,,A*46

BREAD,$GPRMC,090743.000,A,3907.6460,N,08431.6074,W,0.08,22.90,040120,,,A*41
BREAD,$GPRMC,090744.000,A,3907.6460,N,08431.6074,W,0.10,343.93,040120,,,A*78

BREAD,$GPRMC,090745.000,A,3907.6460,N,08431.6074,W,0.13,17.70,040120,,,A*45

BREAD,$GPRMC,090746.000,A,3907.6461,N,08431.6074,W,0.12,342.23,040120,,,A*73

BREAD,$GPRMC,090747.000,A,3907.6461,N,08431.6074,W,0.07,277.36,040120,,,A*75

BREAD,$GPRMC,090748.000,A,3907.6461,N,08431.6074,W,0.10,241.06,040120,,,A*7A

BREAD,$GPRMC,090749.000,A,3907.6460,N,08431.6074,W,0.05,140.87,040120,,,A*75

BREAD,$GPRMC,090750.000,A,3907.6460,N,08431.6074,W,0.19,136.23,040120,,,A*7F

BREAD,$GPRMC,090751.000,A,3907.6460,N,08431.6074,W,0.13,216.85,040120,,,A*79

BREAD,$GPRMC,090752.000,A,3907.6460,N,08431.6074,W,0.12,205.18,040120,,,A*7D
BREAD,$GPRMC,090753.000,A,3907.6459,N,08431.6075,W,0.08,204.31,040120,,,A*76

BREAD,$GPRMC,090754.000,A,3907.6459,N,08431.6075,W,0.07,230.30,040120,,,A*78

BREAD,$GPRMC,090755.000,A,3907.6459,N,08431.6075,W,0.05,300.88,040120,,,A*7A

BREAD,$GPRMC,090756.000,A,3907.6459,N,08431.6075,W,0.09,342.37,040120,,,A*77

BREAD,$GPRMC,090757.000,A,3907.6459,N,08431.6075,W,0.14,25.35,040120,,,A*4A

BREAD,$GPRMC,090758.000,A,3907.6459,N,08431.6075,W,0.19,18.34,040120,,,A*47

BREAD,$GPRMC,090759.000,A,3907.6460,N,08431.6075,W,0.28,34.09,040120,,,A*4E

BREAD,$GPRMC,090800.000,A,3907.6460,N,08431.6074,W,0.19,47.03,040120,,,A*40

BREAD,$GPRMC,090801.000,A,3907.6460,N,08431.6074,W,0.22,54.74,040120,,,A*4B

BREAD,$GPRMC,090802.000,A,3907.6461,N,08431.6073,W,0.25,72.55,040120,,,A*4E

BREAD,$GPRMC,090803.000,A,3907.6461,N,08431.6072,W,0.17,27.93,040120,,,A*45

BREAD,$GPRMC,090804.000,A,3907.6461,N,08431.6072,W,0.12,38.40,040120,,,A*47

BREAD,$GPRMC,090805.000,A,3907.6461,N,08431.6072,W,0.16,332.86,040120,,,A*71

BREAD,$GPRMC,090806.000,A,3907.6462,N,08431.6072,W,0.22,319.16,040120,,,A*76

BREAD,$GPRMC,090807.000,A,3907.6462,N,08431.6072,W,0.22,305.35,040120,,,A*7B

BREAD,$GPRMC,090808.000,A,3907.6462,N,08431.6073,W,0.07,292.98,040120,,,A*7A

BREAD,$GPRMC,090809.000,A,3907.6462,N,08431.6073,W,0.15,307.89,040120,,,A*75

BREAD,$GPRMC,090810.000,A,3907.6463,N,08431.6074,W,0.10,327.86,040120,,,A*73

BREAD,$GPRMC,090811.000,A,3907.6463,N,08431.6074,W,0.15,73.09,040120,,,A*42

BREAD,$GPRMC,090812.000,A,3907.6463,N,08431.6073,W,0.18,66.98,040120,,,A*47

BREAD,$GPRMC,090813.000,A,3907.6463,N,08431.6073,W,0.16,76.32,040120,,,A*49

BREAD,$GPRMC,090814.000,A,3907.6463,N,08431.6072,W,0.19,122.77,040120,,,A*71

BREAD,$GPRMC,090815.000,A,3907.6463,N,08431.6071,W,0.23,123.10,040120,,,A*7A

BREAD,$GPRMC,090816.000,A,3907.6462,N,08431.6071,W,0.22,143.41,040120,,,A*7B

BREAD,$GPRMC,090817.000,A,3907.6462,N,08431.6070,W,0.23,148.39,040120,,,A*7E

BREAD,$GPRMC,090818.000,A,3907.6461,N,08431.6070,W,0.27,135.87,040120,,,A*79

BREAD,$GPRMC,090819.000,A,3907.6461,N,08431.6069,W,0.27,136.22,040120,,,A*7C

BREAD,$GPRMC,090820.000,A,3907.6460,N,08431.6068,W,0.28,149.58,040120,,,A*7C

BREAD,$GPRMC,090821.000,A,3907.6459,N,08431.6068,W,0.20,152.98,040120,,,A*79

BREAD,$GPRMC,090823.000,A,3907.6458,N,08431.6067,W,0.31,147.64,040120,,,A*72

BREAD,$GPRMC,090824.000,A,3907.6458,N,08431.6066,W,0.16,131.98,040120,,,A*73

BREAD,$GPRMC,090825.000,A,3907.6457,N,08431.6066,W,0.09,101.56,040120,,,A*72

BREAD,$GPRMC,090826.000,A,3907.6457,N,08431.6066,W,0.12,155.39,040120,,,A*73

BREAD,$GPRMC,090827.000,A,3907.6457,N,08431.6065,W,0.18,152.44,040120,,,A*76

BREAD,$GPRMC,090828.000,A,3907.6457,N,08431.6065,W,0.24,159.73,040120,,,A*79

BREAD,$GPRMC,090829.000,A,3907.6456,N,08431.6065,W,0.26,171.86,040120,,,A*7B

BREAD,$GPRMC,090830.000,A,3907.6455,N,08431.6065,W,0.06,170.43,040120,,,A*7A

BREAD,$GPRMC,090831.000,A,3907.6455,N,08431.6065,W,0.15,202.34,040120,,,A*7F

BREAD,$GPRMC,090832.000,A,3907.6455,N,08431.6065,W,0.17,235.79,040120,,,A*73

BREAD,$GPRMC,090833.000,A,3907.6454,N,08431.6065,W,0.22,178.51,040120,,,A*75

BREAD,$GPRMC,090834.000,A,3907.6454,N,08431.6065,W,0.18,156.09,040120,,,A*7A

BREAD,$GPRMC,090835.000,A,3907.6453,N,08431.6065,W,0.07,219.46,040120,,,A*71

BREAD,$GPRMC,090836.000,A,3907.6453,N,08431.6065,W,0.18,104.42,040120,,,A*77

BREAD,$GPRMC,090837.000,A,3907.6453,N,08431.6064,W,0.06,150.81,040120,,,A*76

BREAD,$GPRMC,090838.000,A,3907.6453,N,08431.6064,W,0.09,94.57,040120,,,A*44

BREAD,$GPRMC,090839.000,A,3907.6453,N,08431.6064,W,0.15,47.24,040120,,,A*42

BREAD,$GPRMC,090840.000,A,3907.6453,N,08431.6064,W,0.15,91.62,040120,,,A*45

BREAD,$GPRMC,090841.000,A,3907.6453,N,08431.6063,W,0.04,89.97,040120,,,A*40

BREAD,$GPRMC,090842.000,A,3907.6453,N,08431.6063,W,0.10,229.29,040120,,,A*7B

BREAD,$GPRMC,090843.000,A,3907.6453,N,08431.6063,W,0.13,178.77,040120,,,A*75

BREAD,$GPRMC,090844.000,A,3907.6452,N,08431.6063,W,0.10,99.26,040120,,,A*4A

BREAD,$GPRMC,090845.000,A,3907.6452,N,08431.6063,W,0.11,98.87,040120,,,A*40

BREAD,$GPRMC,090846.000,A,3907.6452,N,08431.6062,W,0.04,318.79,040120,,,A*7C

BREAD,$GPRMC,090847.000,A,3907.6452,N,08431.6063,W,0.09,73.52,040120,,,A*46

BREAD,$GPRMC,090848.000,A,3907.6452,N,08431.6062,W,0.03,78.95,040120,,,A*42

BREAD,$GPRMC,090849.000,A,3907.6452,N,08431.6062,W,0.12,262.00,040120,,,A*76

BREAD,$GPRMC,090850.000,A,3907.6452,N,08431.6063,W,0.15,310.44,040120,,,A*7C

BREAD,$GPRMC,090851.000,A,3907.6453,N,08431.6063,W,0.23,330.41,040120,,,A*7E

BREAD,$GPRMC,090852.000,A,3907.6453,N,08431.6064,W,0.18,321.69,040120,,,A*78

BREAD,$GPRMC,090853.000,A,3907.6454,N,08431.6064,W,0.26,329.13,040120,,,A*76

BREAD,$GPRMC,090854.000,A,3907.6454,N,08431.6065,W,0.33,333.02,040120,,,A*7F

BREAD,$GPRMC,090855.000,A,3907.6455,N,08431.6065,W,0.25,340.15,040120,,,A*7A

BREAD,$GPRMC,090856.000,A,3907.6456,N,08431.6065,W,0.26,349.39,040120,,,A*7E

BREAD,$GPRMC,090857.000,A,3907.6456,N,08431.6066,W,0.28,357.55,040120,,,A*77

BREAD,$GPRMC,090858.000,A,3907.6457,N,08431.6066,W,0.19,8.12,040120,,,A*71

BREAD,$GPRMC,090859.000,A,3907.6458,N,08431.6066,W,0.21,332.23,040120,,,A*7C

BREAD,$GPRMC,090900.000,A,3907.6458,N,08431.6066,W,0.18,339.95,040120,,,A*7D

BREAD,$GPRMC,090901.000,A,3907.6459,N,08431.6066,W,0.29,12.26,040120,,,A*4D

BREAD,$GPRMC,090902.000,A,3907.6459,N,08431.6066,W,0.33,2.67,040120,,,A*71

BREAD,$GPRMC,090903.000,A,3907.6460,N,08431.6066,W,0.32,23.00,040120,,,A*49

BREAD,$GPRMC,090904.000,A,3907.6461,N,08431.6065,W,0.33,2.13,040120,,,A*7C

BREAD,$GPRMC,090905.000,A,3907.6462,N,08431.6065,W,0.34,5.88,040120,,,A*7C

BREAD,$GPRMC,090906.000,A,3907.6463,N,08431.6065,W,0.35,14.34,040120,,,A*48

BREAD,$GPRMC,090907.000,A,3907.6464,N,08431.6065,W,0.39,7.64,040120,,,A*75

BREAD,$GPRMC,090908.000,A,3907.6465,N,08431.6065,W,0.32,16.22,040120,,,A*42

BREAD,$GPRMC,090909.000,A,3907.6466,N,08431.6065,W,0.25,23.85,040120,,,A*4D

BREAD,$GPRMC,090910.000,A,3907.6466,N,08431.6064,W,0.26,50.51,040120,,,A*4A

BREAD,$GPRMC,090911.000,A,3907.6467,N,08431.6064,W,0.24,61.30,040120,,,A*4D

BREAD,$GPRMC,090912.000,A,3907.6467,N,08431.6063,W,0.22,16.03,040120,,,A*4F

BREAD,$GPRMC,090913.000,A,3907.6468,N,08431.6063,W,0.14,358.64,040120,,,A*7C

BREAD,$GPRMC,090914.000,A,3907.6468,N,08431.6063,W,0.08,324.60,040120,,,A*79

BREAD,$GPRMC,090915.000,A,3907.6468,N,08431.6063,W,0.02,195.58,040120,,,A*71

BREAD,$GPRMC,090916.000,A,3907.6468,N,08431.6063,W,0.03,238.29,040120,,,A*71

BREAD,$GPRMC,090917.000,A,3907.6468,N,08431.6063,W,0.14,113.98,040120,,,A*76

BREAD,$GPRMC,090918.000,A,3907.6468,N,08431.6062,W,0.12,102.95,040120,,,A*73

BREAD,$GPRMC,090919.000,A,3907.6468,N,08431.6062,W,0.04,6.42,040120,,,A*7A

BREAD,$GPRMC,090920.000,A,3907.6468,N,08431.6062,W,0.10,308.68,040120,,,A*70

BREAD,$GPRMC,090921.000,A,3907.6468,N,08431.6062,W,0.11,323.99,040120,,,A*77
BREAD,$GPRMC,090922.000,A,3907.6469,N,08431.6063,W,0.17,23.81,040120,,,A*48

BREAD,$GPRMC,090923.000,A,3907.6469,N,08431.6062,W,0.24,4.98,040120,,,A*75

BREAD,$GPRMC,090924.000,A,3907.6470,N,08431.6062,W,0.22,356.80,040120,,,A*71

BREAD,$GPRMC,090925.000,A,3907.6470,N,08431.6062,W,0.20,352.43,040120,,,A*79

BREAD,$GPRMC,090926.000,A,3907.6471,N,08431.6062,W,0.13,349.32,040120,,,A*77

BREAD,$GPRMC,090927.000,A,3907.6471,N,08431.6063,W,0.25,325.93,040120,,,A*73

BREAD,$GPRMC,090928.000,A,3907.6472,N,08431.6063,W,0.19,350.48,040120,,,A*74

BREAD,$GPRMC,090929.000,A,3907.6472,N,08431.6063,W,0.20,337.63,040120,,,A*77

BREAD,$GPRMC,090930.000,A,3907.6473,N,08431.6064,W,0.35,313.66,040120,,,A*7E

BREAD,$GPRMC,090931.000,A,3907.6474,N,08431.6064,W,0.17,295.04,040120,,,A*73

BREAD,$GPRMC,090932.000,A,3907.6474,N,08431.6065,W,0.10,195.34,040120,,,A*76

BREAD,$GPRMC,090933.000,A,3907.6473,N,08431.6065,W,0.18,133.56,040120,,,A*70

BREAD,$GPRMC,090934.000,A,3907.6473,N,08431.6065,W,0.17,127.95,040120,,,A*72

BREAD,$GPRMC,090935.000,A,3907.6473,N,08431.6064,W,0.04,17.34,040120,,,A*49

BREAD,$GPRMC,090936.000,A,3907.6473,N,08431.6064,W,0.04,340.95,040120,,,A*70

BREAD,$GPRMC,090937.000,A,3907.6473,N,08431.6064,W,0.10,334.30,040120,,,A*78

BREAD,$GPRMC,090938.000,A,3907.6473,N,08431.6064,W,0.14,156.75,040120,,,A*74

BREAD,$GPRMC,090939.000,A,3907.6473,N,08431.6064,W,0.04,351.91,040120,,,A*7B

BREAD,$GPRMC,090940.000,A,3907.6473,N,08431.6064,W,0.15,96.43,040120,,,A*42

BREAD,$GPRMC,090941.000,A,3907.6473,N,08431.6064,W,0.14,0.18,040120,,,A*73

BREAD,$GPRMC,090942.000,A,3907.6473,N,08431.6064,W,0.18,328.69,040120,,,A*73

BREAD,$GPRMC,090943.000,A,3907.6474,N,08431.6064,W,0.12,352.22,040120,,,A*7D

BREAD,$GPRMC,090944.000,A,3907.6474,N,08431.6064,W,0.19,355.32,040120,,,A*77

BREAD,$GPRMC,090945.000,A,3907.6475,N,08431.6064,W,0.25,16.50,040120,,,A*48

BREAD,$GPRMC,090946.000,A,3907.6475,N,08431.6064,W,0.19,20.45,040120,,,A*45

BREAD,$GPRMC,090947.000,A,3907.6476,N,08431.6064,W,0.18,23.45,040120,,,A*45

BREAD,$GPRMC,090948.000,A,3907.6476,N,08431.6064,W,0.25,34.03,040120,,,A*40

BREAD,$GPRMC,090949.000,A,3907.6477,N,08431.6063,W,0.10,17.29,040120,,,A*48

BREAD,$GPRMC,090950.000,A,3907.6477,N,08431.6063,W,0.15,351.21,040120,,,A*7C

BREAD,$GPRMC,090951.000,A,3907.6478,N,08431.6063,W,0.16,323.52,040120,,,A*70

BREAD,$GPRMC,090953.000,A,3907.6478,N,08431.6063,W,0.13,33.71,040120,,,A*44

BREAD,$GPRMC,090954.000,A,3907.6479,N,08431.6063,W,0.12,24.29,040120,,,A*48

BREAD,$GPRMC,090955.000,A,3907.6479,N,08431.6063,W,0.04,281.06,040120,,,A*7E

BREAD,$GPRMC,090956.000,A,3907.6479,N,08431.6063,W,0.06,343.89,040120,,,A*77

BREAD,$GPRMC,090957.000,A,3907.6479,N,08431.6063,W,0.10,296.67,040120,,,A*78

BREAD,$GPRMC,090958.000,A,3907.6479,N,08431.6063,W,0.12,273.04,040120,,,A*7B

BREAD,$GPRMC,090959.000,A,3907.6479,N,08431.6064,W,0.10,259.93,040120,,,A*79

BREAD,$GPRMC,091000.000,A,3907.6479,N,08431.6064,W,0.09,273.09,040120,,,A*7E

BREAD,$GPRMC,091001.000,A,3907.6479,N,08431.6064,W,0.19,268.54,040120,,,A*7C

BREAD,$GPRMC,091002.000,A,3907.6479,N,08431.6065,W,0.03,261.55,040120,,,A*7D

BREAD,$GPRMC,091003.000,A,3907.6479,N,08431.6065,W,0.03,144.75,040120,,,A*7A

BREAD,$GPRMC,091004.000,A,3907.6479,N,08431.6065,W,0.19,172.29,040120,,,A*7A

BREAD,$GPRMC,091005.000,A,3907.6478,N,08431.6065,W,0.24,184.51,040120,,,A*72

BREAD,$GPRMC,091006.000,A,3907.6478,N,08431.6065,W,0.18,210.66,040120,,,A*74

BREAD,$GPRMC,091007.000,A,3907.6477,N,08431.6065,W,0.16,187.20,040120,,,A*7B

BREAD,$GPRMC,091008.000,A,3907.6477,N,08431.6065,W,0.06,164.97,040120,,,A*74

BREAD,$GPRMC,091009.000,A,3907.6477,N,08431.6065,W,0.14,299.69,040120,,,A*76

BREAD,$GPRMC,091010.000,A,3907.6477,N,08431.6066,W,0.07,352.09,040120,,,A*7F

BREAD,$GPRMC,091011.000,A,3907.6477,N,08431.6066,W,0.17,344.49,040120,,,A*7C

BREAD,$GPRMC,091012.000,A,3907.6478,N,08431.6066,W,0.14,287.94,040120,,,A*7D

BREAD,$GPRMC,091013.000,A,3907.6478,N,08431.6066,W,0.07,332.53,040120,,,A*7A

BREAD,$GPRMC,091014.000,A,3907.6478,N,08431.6066,W,0.07,335.35,040120,,,A*7A

BREAD,$GPRMC,091015.000,A,3907.6478,N,08431.6067,W,0.19,310.26,040120,,,A*70

BREAD,$GPRMC,091016.000,A,3907.6479,N,08431.6067,W,0.24,319.83,040120,,,A*7A

BREAD,$GPRMC,091017.000,A,3907.6479,N,08431.6068,W,0.29,349.01,040120,,,A*76

BREAD,$GPRMC,091018.000,A,3907.6480,N,08431.6068,W,0.24,10.54,040120,,,A*4D

BREAD,$GPRMC,091019.000,A,3907.6481,N,08431.6068,W,0.26,358.88,040120,,,A*71

BREAD,$GPRMC,091020.000,A,3907.6482,N,08431.6068,W,0.33,354.03,040120,,,A*73

BREAD,$GPRMC,091021.000,A,3907.6482,N,08431.6068,W,0.29,343.48,040120,,,A*70

BREAD,$GPRMC,091022.000,A,3907.6483,N,08431.6068,W,0.44,338.10,040120,,,A*78

BREAD,$GPRMC,091023.000,A,3907.6484,N,08431.6069,W,0.37,344.80,040120,,,A*79

BREAD,$GPRMC,091024.000,A,3907.6485,N,08431.6069,W,0.42,342.68,040120,,,A*7D

BREAD,$GPRMC,091025.000,A,3907.6486,N,08431.6070,W,0.38,350.01,040120,,,A*76

BREAD,$GPRMC,091026.000,A,3907.6487,N,08431.6070,W,0.52,336.54,040120,,,A*78

BREAD,$GPRMC,091027.000,A,3907.6489,N,08431.6071,W,0.43,325.54,040120,,,A*74

BREAD,$GPRMC,091028.000,A,3907.6490,N,08431.6072,W,0.43,336.54,040120,,,A*72

BREAD,$GPRMC,091029.000,A,3907.6491,N,08431.6072,W,0.36,345.74,040120,,,A*76

BREAD,$GPRMC,091030.000,A,3907.6492,N,08431.6073,W,0.26,12.08,040120,,,A*47
BREAD,$GPRMC,091031.000,A,3907.6492,N,08431.6072,W,0.28,16.15,040120,,,A*41

BREAD,$GPRMC,091032.000,A,3907.6493,N,08431.6072,W,0.16,352.31,040120,,,A*7B

BREAD,$GPRMC,091033.000,A,3907.6494,N,08431.6072,W,0.10,358.10,040120,,,A*72

BREAD,$GPRMC,091034.000,A,3907.6494,N,08431.6072,W,0.09,41.07,040120,,,A*40

BREAD,$GPRMC,091035.000,A,3907.6494,N,08431.6072,W,0.15,31.50,040120,,,A*49

BREAD,$GPRMC,091036.000,A,3907.6494,N,08431.6072,W,0.16,47.94,040120,,,A*40

BREAD,$GPRMC,091037.000,A,3907.6495,N,08431.6071,W,0.20,356.55,040120,,,A*78

BREAD,$GPRMC,091038.000,A,3907.6495,N,08431.6071,W,0.23,354.07,040120,,,A*71

BREAD,$GPRMC,091039.000,A,3907.6496,N,08431.6071,W,0.04,342.20,040120,,,A*74

BREAD,$GPRMC,091040.000,A,3907.6496,N,08431.6071,W,0.07,181.92,040120,,,A*7D

BREAD,$GPRMC,091041.000,A,3907.6495,N,08431.6071,W,0.04,245.65,040120,,,A*7F

BREAD,$GPRMC,091042.000,A,3907.6495,N,08431.6071,W,0.04,290.68,040120,,,A*79

BREAD,$GPRMC,091043.000,A,3907.6495,N,08431.6071,W,0.11,121.01,040120,,,A*7A

BREAD,$GPRMC,091044.000,A,3907.6495,N,08431.6071,W,0.15,284.44,040120,,,A*74

BREAD,$GPRMC,091045.000,A,3907.6495,N,08431.6072,W,0.16,252.55,040120,,,A*7E

BREAD,$GPRMC,091046.000,A,3907.6495,N,08431.6072,W,0.15,229.55,040120,,,A*72

BREAD,$GPRMC,091047.000,A,3907.6495,N,08431.6073,W,0.17,207.42,040120,,,A*7A

BREAD,$GPRMC,091048.000,A,3907.6494,N,08431.6073,W,0.06,253.02,040120,,,A*71

BREAD,$GPRMC,091049.000,A,3907.6494,N,08431.6073,W,0.08,237.09,040120,,,A*77

BREAD,$GPRMC,091050.000,A,3907.6494,N,08431.6073,W,0.16,242.24,040120,,,A*7D

BREAD,$GPRMC,091051.000,A,3907.6494,N,08431.6074,W,0.14,180.79,040120,,,A*7C

BREAD,$GPRMC,091052.000,A,3907.6493,N,08431.6074,W,0.25,179.25,040120,,,A*75

BREAD,$GPRMC,091053.000,A,3907.6492,N,08431.6074,W,0.19,187.06,040120,,,A*7A

BREAD,$GPRMC,091054.000,A,3907.6492,N,08431.6074,W,0.23,177.55,040120,,,A*7D

BREAD,$GPRMC,091055.000,A,3907.6491,N,08431.6074,W,0.07,211.29,040120,,,A*71

BREAD,$GPRMC,091056.000,A,3907.6491,N,08431.6074,W,0.04,312.21,040120,,,A*7B

BREAD,$GPRMC,091057.000,A,3907.6491,N,08431.6074,W,0.15,22.32,040120,,,A*48

BREAD,$GPRMC,091058.000,A,3907.6492,N,08431.6074,W,0.20,7.16,040120,,,A*73

BREAD,$GPRMC,091059.000,A,3907.6492,N,08431.6074,W,0.25,342.09,040120,,,A*7B

BREAD,$GPRMC,091100.000,A,3907.6493,N,08431.6074,W,0.14,312.11,040120,,,A*79

BREAD,$GPRMC,091101.000,A,3907.6493,N,08431.6075,W,0.06,289.78,040120,,,A*76

BREAD,$GPRMC,091102.000,A,3907.6493,N,08431.6075,W,0.04,317.68,040120,,,A*70

BREAD,$GPRMC,091103.000,A,3907.6493,N,08431.6075,W,0.06,19.15,040120,,,A*44

BREAD,$GPRMC,091104.000,A,3907.6493,N,08431.6075,W,0.10,258.25,040120,,,A*70

BREAD,$GPRMC,091105.000,A,3907.6493,N,08431.6075,W,0.12,241.50,040120,,,A*79

BREAD,$GPRMC,091106.000,A,3907.6493,N,08431.6076,W,0.17,303.17,040120,,,A*78

BREAD,$GPRMC,091107.000,A,3907.6493,N,08431.6076,W,0.11,294.87,040120,,,A*79

BREAD,$GPRMC,091108.000,A,3907.6493,N,08431.6076,W,0.07,196.81,040120,,,A*76

BREAD,$GPRMC,091110.000,A,3907.6492,N,08431.6077,W,0.11,188.59,040120,,,A*72

BREAD,$GPRMC,091111.000,A,3907.6492,N,08431.6077,W,0.18,168.45,040120,,,A*79

BREAD,$GPRMC,091112.000,A,3907.6492,N,08431.6077,W,0.34,160.56,040120,,,A*7E

BREAD,$GPRMC,091113.000,A,3907.6491,N,08431.6076,W,0.42,161.98,040120,,,A*7F

BREAD,$GPRMC,091114.000,A,3907.6489,N,08431.6076,W,0.34,153.01,040120,,,A*71

BREAD,$GPRMC,091115.000,A,3907.6489,N,08431.6075,W,0.21,182.20,040120,,,A*78

BREAD,$GPRMC,091116.000,A,3907.6488,N,08431.6075,W,0.28,190.23,040120,,,A*73

BREAD,$GPRMC,091117.000,A,3907.6487,N,08431.6075,W,0.28,193.06,040120,,,A*79

BREAD,$GPRMC,091118.000,A,3907.6487,N,08431.6075,W,0.33,197.71,040120,,,A*78

BREAD,$GPRMC,091119.000,A,3907.6486,N,08431.6076,W,0.13,211.69,040120,,,A*7D

BREAD,$GPRMC,091120.000,A,3907.6485,N,08431.6076,W,0.17,244.25,040120,,,A*78

BREAD,$GPRMC,091121.000,A,3907.6485,N,08431.6076,W,0.16,207.83,040120,,,A*73

BREAD,$GPRMC,091122.000,A,3907.6485,N,08431.6077,W,0.04,195.32,040120,,,A*70

BREAD,$GPRMC,091123.000,A,3907.6485,N,08431.6077,W,0.13,121.65,040120,,,A*7A

BREAD,$GPRMC,091124.000,A,3907.6485,N,08431.6076,W,0.03,247.37,040120,,,A*79

BREAD,$GPRMC,091125.000,A,3907.6485,N,08431.6076,W,0.05,134.10,040120,,,A*7C

BREAD,$GPRMC,091126.000,A,3907.6485,N,08431.6076,W,0.13,86.88,040120,,,A*41

BREAD,$GPRMC,091127.000,A,3907.6485,N,08431.6076,W,0.25,124.96,040120,,,A*73

BREAD,$GPRMC,091128.000,A,3907.6484,N,08431.6075,W,0.21,127.48,040120,,,A*7A

BREAD,$GPRMC,091129.000,A,3907.6484,N,08431.6074,W,0.08,176.23,040120,,,A*78

BREAD,$GPRMC,091130.000,A,3907.6484,N,08431.6074,W,0.10,32.23,040120,,,A*48

BREAD,$GPRMC,091131.000,A,3907.6484,N,08431.6074,W,0.21,63.58,040120,,,A*43

BREAD,$GPRMC,091132.000,A,3907.6484,N,08431.6073,W,0.12,33.95,040120,,,A*43

BREAD,$GPRMC,091133.000,A,3907.6485,N,08431.6073,W,0.10,8.78,040120,,,A*7A

BREAD,$GPRMC,091134.000,A,3907.6485,N,08431.6073,W,0.16,8.93,040120,,,A*7E

BREAD,$GPRMC,091135.000,A,3907.6485,N,08431.6073,W,0.15,32.55,040120,,,A*4F

BREAD,$GPRMC,091136.000,A,3907.6486,N,08431.6073,W,0.10,85.06,040120,,,A*40

BREAD,$GPRMC,091137.000,A,3907.6486,N,08431.6072,W,0.14,103.09,040120,,,A*74

BREAD,$GPRMC,091138.000,A,3907.6486,N,08431.6072,W,0.05,101.43,040120,,,A*77

BREAD,$GPRMC,091139.000,A,3907.6486,N,08431.6072,W,0.15,122.51,040120,,,A*75

BREAD,$GPRMC,091140.000,A,3907.6485,N,08431.6071,W,0.09,115.73,040120,,,A*72

BREAD,$GPRMC,091141.000,A,3907.6485,N,08431.6071,W,0.10,103.60,040120,,,A*7E

BREAD,$GPRMC,091142.000,A,3907.6485,N,08431.6071,W,0.08,206.63,040120,,,A*71

BREAD,$GPRMC,091143.000,A,3907.6485,N,08431.6071,W,0.19,239.21,040120,,,A*7A

BREAD,$GPRMC,091144.000,A,3907.6485,N,08431.6071,W,0.07,230.07,040120,,,A*7F

BREAD,$GPRMC,091145.000,A,3907.6484,N,08431.6072,W,0.09,294.40,040120,,,A*7F

BREAD,$GPRMC,091146.000,A,3907.6485,N,08431.6072,W,0.20,319.87,040120,,,A*79

BREAD,$GPRMC,091147.000,A,3907.6485,N,08431.6072,W,0.20,356.30,040120,,,A*7F

BREAD,$GPRMC,091148.000,A,3907.6485,N,08431.6072,W,0.34,321.93,040120,,,A*7C

BREAD,$GPRMC,091149.000,A,3907.6486,N,08431.6073,W,0.21,334.73,040120,,,A*71

BREAD,$GPRMC,091150.000,A,3907.6487,N,08431.6073,W,0.18,338.05,040120,,,A*7F

BREAD,$GPRMC,091151.000,A,3907.6487,N,08431.6074,W,0.25,322.84,040120,,,A*75

BREAD,$GPRMC,091152.000,A,3907.6488,N,08431.6074,W,0.27,326.06,040120,,,A*75

BREAD,$GPRMC,091153.000,A,3907.6488,N,08431.6075,W,0.22,331.45,040120,,,A*71

BREAD,$GPRMC,091154.000,A,3907.6489,N,08431.6075,W,0.19,336.14,040120,,,A*7C

BREAD,$GPRMC,091155.000,A,3907.6489,N,08431.6075,W,0.21,359.42,040120,,,A*7C

BREAD,$GPRMC,091156.000,A,3907.6490,N,08431.6075,W,0.21,350.85,040120,,,A*75

BREAD,$GPRMC,091157.000,A,3907.6490,N,08431.6076,W,0.31,328.00,040120,,,A*74

BREAD,$GPRMC,091158.000,A,3907.6491,N,08431.6076,W,0.33,321.97,040120,,,A*7F

BREAD,$GPRMC,091159.000,A,3907.6492,N,08431.6077,W,0.46,303.46,040120,,,A*72

BREAD,$GPRMC,091200.000,A,3907.6492,N,08431.6078,W,0.29,306.69,040120,,,A*73

BREAD,$GPRMC,091201.000,A,3907.6493,N,08431.6079,W,0.12,325.98,040120,,,A*75

BREAD,$GPRMC,091202.000,A,3907.6493,N,08431.6079,W,0.06,177.45,040120,,,A*76

BREAD,$GPRMC,091203.000,A,3907.6493,N,08431.6079,W,0.12,127.60,040120,,,A*70

BREAD,$GPRMC,091204.000,A,3907.6493,N,08431.6079,W,0.22,161.75,040120,,,A*72

BREAD,$GPRMC,091205.000,A,3907.6492,N,08431.6079,W,0.21,183.84,040120,,,A*73

BREAD,$GPRMC,091206.000,A,3907.6491,N,08431.6079,W,0.22,196.65,040120,,,A*7B

BREAD,$GPRMC,091207.000,A,3907.6491,N,08431.6079,W,0.33,229.92,040120,,,A*75

BREAD,$GPRMC,091208.000,A,3907.6490,N,08431.6080,W,0.22,206.53,040120,,,A*7D

BREAD,$GPRMC,091209.000,A,3907.6490,N,08431.6080,W,0.23,204.66,040120,,,A*79

BREAD,$GPRMC,091210.000,A,3907.6489,N,08431.6081,W,0.31,205.66,040120,,,A*7A

BREAD,$GPRMC,091211.000,A,3907.6488,N,08431.6081,W,0.36,193.93,040120,,,A*7B

BREAD,$GPRMC,091212.000,A,3907.6487,N,08431.6082,W,0.34,198.90,040120,,,A*7E

BREAD,$GPRMC,091213.000,A,3907.6486,N,08431.6082,W,0.41,188.42,040120,,,A*72
BREAD,$GPRMC,091214.000,A,3907.6485,N,08431.6082,W,0.34,194.89,040120,,,A*7E

BREAD,$GPRMC,091215.000,A,3907.6484,N,08431.6083,W,0.26,191.74,040120,,,A*7B

BREAD,$GPRMC,091216.000,A,3907.6483,N,08431.6083,W,0.35,170.59,040120,,,A*7D

BREAD,$GPRMC,091217.000,A,3907.6482,N,08431.6083,W,0.24,171.05,040120,,,A*75

BREAD,$GPRMC,091218.000,A,3907.6482,N,08431.6082,W,0.14,157.09,040120,,,A*70

BREAD,$GPRMC,091219.000,A,3907.6481,N,08431.6082,W,0.03,289.82,040120,,,A*77

BREAD,$GPRMC,091220.000,A,3907.6481,N,08431.6082,W,0.12,255.28,040120,,,A*7C

BREAD,$GPRMC,091221.000,A,3907.6481,N,08431.6083,W,0.19,245.82,040120,,,A*76

BREAD,$GPRMC,091222.000,A,3907.6481,N,08431.6083,W,0.11,262.99,040120,,,A*72

BREAD,$GPRMC,091223.000,A,3907.6481,N,08431.6084,W,0.14,314.35,040120,,,A*77

BREAD,$GPRMC,091224.000,A,3907.6481,N,08431.6084,W,0.10,297.39,040120,,,A*72

BREAD,$GPRMC,091225.000,A,3907.6481,N,08431.6084,W,0.09,318.76,040120,,,A*76

BREAD,$GPRMC,091226.000,A,3907.6481,N,08431.6085,W,0.13,324.52,040120,,,A*76

BREAD,$GPRMC,091227.000,A,3907.6482,N,08431.6085,W,0.10,350.22,040120,,,A*73

BREAD,$GPRMC,091228.000,A,3907.6482,N,08431.6085,W,0.23,345.07,040120,,,A*7F

BREAD,$GPRMC,091229.000,A,3907.6482,N,08431.6085,W,0.29,343.21,040120,,,A*76

BREAD,$GPRMC,091230.000,A,3907.6483,N,08431.6086,W,0.20,342.55,040120,,,A*77

BREAD,$GPRMC,091231.000,A,3907.6484,N,08431.6086,W,0.22,356.06,040120,,,A*70

BREAD,$GPRMC,091232.000,A,3907.6484,N,08431.6086,W,0.24,341.96,040120,,,A*7A

BREAD,$GPRMC,091233.000,A,3907.6485,N,08431.6086,W,0.24,336.56,040120,,,A*76

BREAD,$GPRMC,091234.000,A,3907.6485,N,08431.6087,W,0.15,40.48,040120,,,A*4F

BREAD,$GPRMC,091235.000,A,3907.6486,N,08431.6086,W,0.15,19.81,040120,,,A*45

BREAD,$GPRMC,091236.000,A,3907.6486,N,08431.6086,W,0.17,8.37,040120,,,A*79

BREAD,$GPRMC,091237.000,A,3907.6486,N,08431.6086,W,0.02,300.48,040120,,,A*7F

BREAD,$GPRMC,091238.000,A,3907.6486,N,08431.6086,W,0.10,185.78,040120,,,A*7F

BREAD,$GPRMC,091239.000,A,3907.6486,N,08431.6086,W,0.21,225.08,040120,,,A*72

BREAD,$GPRMC,091240.000,A,3907.6485,N,08431.6087,W,0.29,176.69,040120,,,A*74

BREAD,$GPRMC,091241.000,A,3907.6485,N,08431.6087,W,0.26,196.55,040120,,,A*7B

BREAD,$GPRMC,091242.000,A,3907.6484,N,08431.6087,W,0.26,204.26,040120,,,A*75

BREAD,$GPRMC,091243.000,A,3907.6483,N,08431.6088,W,0.31,229.59,040120,,,A*7D

BREAD,$GPRMC,091244.000,A,3907.6482,N,08431.6088,W,0.30,205.62,040120,,,A*7C

BREAD,$GPRMC,091245.000,A,3907.6482,N,08431.6089,W,0.38,216.86,040120,,,A*7C

BREAD,$GPRMC,091246.000,A,3907.6481,N,08431.6090,W,0.40,221.66,040120,,,A*71

BREAD,$GPRMC,091247.000,A,3907.6480,N,08431.6091,W,0.44,234.45,040120,,,A*71

BREAD,$GPRMC,091248.000,A,3907.6479,N,08431.6092,W,0.45,236.90,040120,,,A*70

BREAD,$GPRMC,091249.000,A,3907.6478,N,08431.6093,W,0.49,220.72,040120,,,A*76

BREAD,$GPRMC,091250.000,A,3907.6477,N,08431.6095,W,0.53,232.69,040120,,,A*75

BREAD,$GPRMC,091251.000,A,3907.6476,N,08431.6096,W,0.52,235.61,040120,,,A*78

BREAD,$GPRMC,091252.000,A,3907.6475,N,08431.6098,W,0.45,235.59,040120,,,A*7B

BREAD,$GPRMC,091253.000,A,3907.6475,N,08431.6099,W,0.44,234.06,040120,,,A*71

BREAD,$GPRMC,091254.000,A,3907.6474,N,08431.6100,W,0.50,218.10,040120,,,A*7A

BREAD,$GPRMC,091255.000,A,3907.6472,N,08431.6101,W,0.49,202.63,040120,,,A*7B

BREAD,$GPRMC,091256.000,A,3907.6471,N,08431.6102,W,0.62,182.06,040120,,,A*79

BREAD,$GPRMC,091257.000,A,3907.6464,N,08431.6103,W,0.62,187.49,040120,,,A*73

BREAD,$GPRMC,091258.000,A,3907.6458,N,08431.6106,W,0.63,202.15,040120,,,A*70

BREAD,$GPRMC,091259.000,A,3907.6452,N,08431.6107,W,0.59,198.83,040120,,,A*7C

BREAD,$GPRMC,091300.000,A,3907.6446,N,08431.6109,W,0.62,204.87,040120,,,A*70

BREAD,$GPRMC,091301.000,A,3907.6440,N,08431.6110,W,0.62,199.40,040120,,,A*73

BREAD,$GPRMC,091302.000,A,3907.6434,N,08431.6112,W,0.67,194.11,040120,,,A*7D

BREAD,$GPRMC,091303.000,A,3907.6429,N,08431.6114,W,0.75,193.28,040120,,,A*78

BREAD,$GPRMC,091304.000,A,3907.6425,N,08431.6115,W,0.80,208.04,040120,,,A*77

BREAD,$GPRMC,091305.000,A,3907.6422,N,08431.6114,W,0.74,209.30,040120,,,A*7D

BREAD,$GPRMC,091306.000,A,3907.6420,N,08431.6112,W,0.65,203.03,040120,,,A*70

BREAD,$GPRMC,091307.000,A,3907.6418,N,08431.6110,W,0.64,192.83,040120,,,A*7A

BREAD,$GPRMC,091308.000,A,3907.6415,N,08431.6109,W,0.62,191.15,040120,,,A*7A

BREAD,$GPRMC,091309.000,A,3907.6415,N,08431.6108,W,0.60,191.03,040120,,,A*7F

BREAD,$GPRMC,091310.000,A,3907.6414,N,08431.6106,W,0.48,189.31,040120,,,A*7A

BREAD,$GPRMC,091311.000,A,3907.6414,N,08431.6107,W,0.41,211.28,040120,,,A*79

BREAD,$GPRMC,091312.000,A,3907.6416,N,08431.6105,W,0.28,208.26,040120,,,A*73

BREAD,$GPRMC,091313.000,A,3907.6415,N,08431.6106,W,0.30,224.38,040120,,,A*7A

BREAD,$GPRMC,091314.000,A,3907.6414,N,08431.6107,W,0.20,223.30,040120,,,A*73

BREAD,$GPRMC,091315.000,A,3907.6414,N,08431.6107,W,0.25,208.97,040120,,,A*73
BREAD,$GPRMC,091316.000,A,3907.6413,N,08431.6108,W,0.24,220.74,040120,,,A*7E

BREAD,$GPRMC,091317.000,A,3907.6413,N,08431.6108,W,0.24,176.62,040120,,,A*78

BREAD,$GPRMC,091318.000,A,3907.6412,N,08431.6108,W,0.33,187.13,040120,,,A*78

BREAD,$GPRMC,091319.000,A,3907.6411,N,08431.6108,W,0.31,177.56,040120,,,A*76

BREAD,$GPRMC,091320.000,A,3907.6410,N,08431.6108,W,0.36,170.44,040120,,,A*7E

BREAD,$GPRMC,091321.000,A,3907.6409,N,08431.6108,W,0.31,204.55,040120,,,A*70

BREAD,$GPRMC,091322.000,A,3907.6409,N,08431.6109,W,0.37,205.51,040120,,,A*71

BREAD,$GPRMC,091323.000,A,3907.6408,N,08431.6109,W,0.26,222.00,040120,,,A*70

BREAD,$GPRMC,091324.000,A,3907.6407,N,08431.6110,W,0.30,195.75,040120,,,A*7A

BREAD,$GPRMC,091325.000,A,3907.6406,N,08431.6110,W,0.25,206.33,040120,,,A*75
BREAD,$GPRMC,091326.000,A,3907.6406,N,08431.6111,W,0.19,211.96,040120,,,A*71

BREAD,$GPRMC,091327.000,A,3907.6405,N,08431.6111,W,0.10,211.32,040120,,,A*74

BREAD,$GPRMC,091328.000,A,3907.6405,N,08431.6111,W,0.05,237.94,040120,,,A*77

BREAD,$GPRMC,091329.000,A,3907.6405,N,08431.6111,W,0.10,250.38,040120,,,A*75

BREAD,$GPRMC,091330.000,A,3907.6405,N,08431.6112,W,0.21,320.51,040120,,,A*75

BREAD,$GPRMC,091331.000,A,3907.6406,N,08431.6112,W,0.21,329.37,040120,,,A*7E
BREAD,$GPRMC,091332.000,A,3907.6406,N,08431.6112,W,0.28,295.96,040120,,,A*79

BREAD,$GPRMC,091333.000,A,3907.6406,N,08431.6113,W,0.08,272.52,040120,,,A*7A
BREAD,$GPRMC,091334.000,A,3907.6406,N,08431.6114,W,0.07,290.44,040120,,,A*7E

BREAD,$GPRMC,091335.000,A,3907.6406,N,08431.6114,W,0.17,272.31,040120,,,A*70

BREAD,$GPRMC,091336.000,A,3907.6406,N,08431.6114,W,0.16,252.62,040120,,,A*76

BREAD,$GPRMC,091337.000,A,3907.6406,N,08431.6115,W,0.04,202.54,040120,,,A*75

BREAD,$GPRMC,091338.000,A,3907.6406,N,08431.6115,W,0.08,121.15,040120,,,A*71

BREAD,$GPRMC,091339.000,A,3907.6406,N,08431.6115,W,0.06,83.18,040120,,,A*4A

BREAD,$GPRMC,091340.000,A,3907.6406,N,08431.6115,W,0.12,325.21,040120,,,A*74

BREAD,$GPRMC,091341.000,A,3907.6406,N,08431.6115,W,0.12,333.11,040120,,,A*71

BREAD,$GPRMC,091342.000,A,3907.6407,N,08431.6115,W,0.05,82.49,040120,,,A*41

BREAD,$GPRMC,091343.000,A,3907.6407,N,08431.6115,W,0.10,213.14,040120,,,A*76

BREAD,$GPRMC,091344.000,A,3907.6407,N,08431.6115,W,0.19,181.45,040120,,,A*74

BREAD,$GPRMC,091345.000,A,3907.6406,N,08431.6115,W,0.21,265.06,040120,,,A*71

BREAD,$GPRMC,091346.000,A,3907.6406,N,08431.6116,W,0.10,231.97,040120,,,A*7A

BREAD,$GPRMC,091347.000,A,3907.6406,N,08431.6116,W,0.19,258.62,040120,,,A*77

BREAD,$GPRMC,091348.000,A,3907.6406,N,08431.6117,W,0.14,294.80,040120,,,A*78

BREAD,$GPRMC,091349.000,A,3907.6406,N,08431.6117,W,0.37,293.60,040120,,,A*71

BREAD,$GPRMC,091350.000,A,3907.6406,N,08431.6118,W,0.19,277.43,040120,,,A*71

BREAD,$GPRMC,091351.000,A,3907.6407,N,08431.6119,W,0.15,291.40,040120,,,A*77

BREAD,$GPRMC,091352.000,A,3907.6407,N,08431.6119,W,0.05,276.41,040120,,,A*7D

BREAD,$GPRMC,091353.000,A,3907.6407,N,08431.6119,W,0.07,201.15,040120,,,A*7F

BREAD,$GPRMC,091354.000,A,3907.6406,N,08431.6119,W,0.02,193.79,040120,,,A*7E
BREAD,$GPRMC,091355.000,A,3907.6406,N,08431.6119,W,0.08,114.39,040120,,,A*7E

BREAD,$GPRMC,091356.000,A,3907.6406,N,08431.6119,W,0.18,98.42,040120,,,A*45

BREAD,$GPRMC,091357.000,A,3907.6406,N,08431.6118,W,0.25,104.37,040120,,,A*7D

BREAD,$GPRMC,091358.000,A,3907.6406,N,08431.6118,W,0.26,125.18,040120,,,A*7F

BREAD,$GPRMC,091359.000,A,3907.6406,N,08431.6117,W,0.26,127.56,040120,,,A*79

BREAD,$GPRMC,091400.000,A,3907.6405,N,08431.6116,W,0.11,75.51,040120,,,A*45

BREAD,$GPRMC,091401.000,A,3907.6405,N,08431.6116,W,0.22,97.02,040120,,,A*4E

BREAD,$GPRMC,091402.000,A,3907.6405,N,08431.6115,W,0.16,74.20,040120,,,A*44

BREAD,$GPRMC,091403.000,A,3907.6405,N,08431.6114,W,0.11,5.21,040120,,,A*74

BREAD,$GPRMC,091404.000,A,3907.6406,N,08431.6114,W,0.08,318.33,040120,,,A*74

BREAD,$GPRMC,091405.000,A,3907.6406,N,08431.6114,W,0.02,335.36,040120,,,A*75

BREAD,$GPRMC,091406.000,A,3907.6406,N,08431.6114,W,0.17,338.93,040120,,,A*70

BREAD,$GPRMC,091407.000,A,3907.6406,N,08431.6115,W,0.10,341.77,040120,,,A*73

BREAD,$GPRMC,091408.000,A,3907.6406,N,08431.6115,W,0.12,78.00,040120,,,A*47

BREAD,$GPRMC,091409.000,A,3907.6406,N,08431.6114,W,0.14,353.68,040120,,,A*75

BREAD,$GPRMC,091410.000,A,3907.6407,N,08431.6114,W,0.08,266.71,040120,,,A*7E

BREAD,$GPRMC,091411.000,A,3907.6407,N,08431.6114,W,0.14,189.41,040120,,,A*73

BREAD,$GPRMC,091412.000,A,3907.6406,N,08431.6114,W,0.17,225.34,040120,,,A*75

BREAD,$GPRMC,091413.000,A,3907.6406,N,08431.6115,W,0.24,219.30,040120,,,A*7E

BREAD,$GPRMC,091414.000,A,3907.6406,N,08431.6115,W,0.18,234.03,040120,,,A*79

BREAD,$GPRMC,091415.000,A,3907.6405,N,08431.6116,W,0.18,219.79,040120,,,A*7A

BREAD,$GPRMC,091416.000,A,3907.6405,N,08431.6116,W,0.06,213.55,040120,,,A*72

BREAD,$GPRMC,091417.000,A,3907.6405,N,08431.6116,W,0.02,68.79,040120,,,A*47

BREAD,$GPRMC,091418.000,A,3907.6405,N,08431.6116,W,0.15,359.75,040120,,,A*73

BREAD,$GPRMC,091419.000,A,3907.6405,N,08431.6116,W,0.13,49.14,040120,,,A*41

BREAD,$GPRMC,091420.000,A,3907.6405,N,08431.6116,W,0.06,103.10,040120,,,A*74

BREAD,$GPRMC,091421.000,A,3907.6405,N,08431.6116,W,0.22,355.83,040120,,,A*78

BREAD,$GPRMC,091422.000,A,3907.6406,N,08431.6116,W,0.22,356.17,040120,,,A*76

BREAD,$GPRMC,091423.000,A,3907.6407,N,08431.6116,W,0.24,35.84,040120,,,A*4C

BREAD,$GPRMC,091424.000,A,3907.6407,N,08431.6115,W,0.29,33.29,040120,,,A*44

BREAD,$GPRMC,091425.000,A,3907.6408,N,08431.6114,W,0.33,26.97,040120,,,A*41

BREAD,$GPRMC,091426.000,A,3907.6409,N,08431.6114,W,0.10,81.37,040120,,,A*45

BREAD,$GPRMC,091427.000,A,3907.6409,N,08431.6113,W,0.10,83.50,040120,,,A*40
BREAD,$GPRMC,091428.000,A,3907.6409,N,08431.6113,W,0.08,128.38,040120,,,A*78

BREAD,$GPRMC,091429.000,A,3907.6409,N,08431.6113,W,0.19,112.65,040120,,,A*78

BREAD,$GPRMC,091430.000,A,3907.6409,N,08431.6112,W,0.16,53.07,040120,,,A*4E

BREAD,$GPRMC,091431.000,A,3907.6409,N,08431.6112,W,0.20,96.95,040120,,,A*48

BREAD,$GPRMC,091432.000,A,3907.6409,N,08431.6111,W,0.29,89.34,040120,,,A*44

BREAD,$GPRMC,091433.000,A,3907.6409,N,08431.6110,W,0.33,102.69,040120,,,A*75

BREAD,$GPRMC,091434.000,A,3907.6409,N,08431.6109,W,0.27,91.93,040120,,,A*41

BREAD,$GPRMC,091435.000,A,3907.6409,N,08431.6108,W,0.20,73.49,040120,,,A*4D

BREAD,$GPRMC,091436.000,A,3907.6409,N,08431.6107,W,0.21,71.13,040120,,,A*4D

BREAD,$GPRMC,091437.000,A,3907.6409,N,08431.6106,W,0.25,77.22,040120,,,A*4D

BREAD,$GPRMC,091438.000,A,3907.6409,N,08431.6105,W,0.31,14.92,040120,,,A*4A

BREAD,$GPRMC,091439.000,A,3907.6410,N,08431.6105,W,0.30,14.71,040120,,,A*4F

BREAD,$GPRMC,091440.000,A,3907.6411,N,08431.6105,W,0.28,34.89,040120,,,A*4C

BREAD,$GPRMC,091441.000,A,3907.6412,N,08431.6104,W,0.39,29.93,040120,,,A*48

BREAD,$GPRMC,091442.000,A,3907.6413,N,08431.6103,W,0.28,44.72,040120,,,A*49

BREAD,$GPRMC,091443.000,A,3907.6413,N,08431.6103,W,0.25,29.66,040120,,,A*4B

BREAD,$GPRMC,091444.000,A,3907.6414,N,08431.6102,W,0.22,45.53,040120,,,A*41

BREAD,$GPRMC,091445.000,A,3907.6414,N,08431.6102,W,0.22,33.40,040120,,,A*43
BREAD,$GPRMC,091446.000,A,3907.6415,N,08431.6101,W,0.19,350.94,040120,,,A*75

BREAD,$GPRMC,091447.000,A,3907.6415,N,08431.6101,W,0.25,355.43,040120,,,A*74

BREAD,$GPRMC,091448.000,A,3907.6416,N,08431.6101,W,0.30,348.76,040120,,,A*76

BREAD,$GPRMC,091449.000,A,3907.6417,N,08431.6102,W,0.13,312.42,040120,,,A*7C

BREAD,$GPRMC,091450.000,A,3907.6417,N,08431.6102,W,0.14,306.68,040120,,,A*7E

BREAD,$GPRMC,091451.000,A,3907.6417,N,08431.6102,W,0.19,318.83,040120,,,A*78

BREAD,$GPRMC,091452.000,A,3907.6418,N,08431.6103,W,0.39,334.60,040120,,,A*74

BREAD,$GPRMC,091453.000,A,3907.6419,N,08431.6103,W,0.37,335.11,040120,,,A*7D

BREAD,$GPRMC,091454.000,A,3907.6420,N,08431.6104,W,0.21,316.77,040120,,,A*71

BREAD,$GPRMC,091455.000,A,3907.6420,N,08431.6104,W,0.10,288.52,040120,,,A*73

BREAD,$GPRMC,091456.000,A,3907.6420,N,08431.6105,W,0.07,142.08,040120,,,A*7D

BREAD,$GPRMC,091457.000,A,3907.6420,N,08431.6105,W,0.08,179.13,040120,,,A*71

BREAD,$GPRMC,091458.000,A,3907.6420,N,08431.6105,W,0.04,120.27,040120,,,A*79

BREAD,$GPRMC,091459.000,A,3907.6420,N,08431.6105,W,0.05,119.48,040120,,,A*7A

BREAD,$GPRMC,091500.000,A,3907.6420,N,08431.6104,W,0.10,162.34,040120,,,A*75

BREAD,$GPRMC,091501.000,A,3907.6419,N,08431.6104,W,0.23,172.97,040120,,,A*76

BREAD,$GPRMC,091502.000,A,3907.6419,N,08431.6104,W,0.25,201.68,040120,,,A*74

BREAD,$GPRMC,091503.000,A,3907.6418,N,08431.6105,W,0.20,234.01,040120,,,A*79

BREAD,$GPRMC,091504.000,A,3907.6418,N,08431.6105,W,0.24,201.86,040120,,,A*73

BREAD,$GPRMC,091505.000,A,3907.6417,N,08431.6106,W,0.20,200.81,040120,,,A*7C

BREAD,$GPRMC,091506.000,A,3907.6417,N,08431.6106,W,0.18,219.87,040120,,,A*7A

BREAD,$GPRMC,091507.000,A,3907.6416,N,08431.6106,W,0.15,232.07,040120,,,A*76

BREAD,$GPRMC,091508.000,A,3907.6416,N,08431.6107,W,0.11,241.40,040120,,,A*7B

BREAD,$GPRMC,091509.000,A,3907.6416,N,08431.6107,W,0.03,227.27,040120,,,A*78

BREAD,$GPRMC,091510.000,A,3907.6416,N,08431.6107,W,0.07,200.13,040120,,,A*76

BREAD,$GPRMC,091511.000,A,3907.6415,N,08431.6107,W,0.15,194.50,040120,,,A*7E

BREAD,$GPRMC,091512.000,A,3907.6415,N,08431.6107,W,0.20,221.05,040120,,,A*76

BREAD,$GPRMC,091513.000,A,3907.6415,N,08431.6108,W,0.20,244.63,040120,,,A*7B

BREAD,$GPRMC,091514.000,A,3907.6414,N,08431.6109,W,0.22,216.90,040120,,,A*75

BREAD,$GPRMC,091515.000,A,3907.6414,N,08431.6109,W,0.24,218.06,040120,,,A*73

BREAD,$GPRMC,091516.000,A,3907.6413,N,08431.6110,W,0.29,198.89,040120,,,A*7E

BREAD,$GPRMC,091517.000,A,3907.6413,N,08431.6110,W,0.22,213.48,040120,,,A*79

BREAD,$GPRMC,091518.000,A,3907.6412,N,08431.6111,W,0.20,224.88,040120,,,A*7C

BREAD,$GPRMC,091519.000,A,3907.6412,N,08431.6111,W,0.21,225.67,040120,,,A*7C

BREAD,$GPRMC,091520.000,A,3907.6411,N,08431.6112,W,0.21,222.36,040120,,,A*75

BREAD,$GPRMC,091521.000,A,3907.6411,N,08431.6112,W,0.24,240.56,040120,,,A*73

BREAD,$GPRMC,091522.000,A,3907.6410,N,08431.6113,W,0.27,225.66,040120,,,A*73

BREAD,$GPRMC,091523.000,A,3907.6410,N,08431.6114,W,0.28,227.69,040120,,,A*77

BREAD,$GPRMC,091524.000,A,3907.6409,N,08431.6114,W,0.32,228.40,040120,,,A*77

BREAD,$GPRMC,091525.000,A,3907.6409,N,08431.6115,W,0.34,241.81,040120,,,A*73

BREAD,$GPRMC,091526.000,A,3907.6408,N,08431.6116,W,0.33,233.94,040120,,,A*74

BREAD,$GPRMC,091527.000,A,3907.6408,N,08431.6117,W,0.28,222.81,040120,,,A*7A

BREAD,$GPRMC,091528.000,A,3907.6407,N,08431.6118,W,0.30,228.80,040120,,,A*77

BREAD,$GPRMC,091529.000,A,3907.6407,N,08431.6119,W,0.31,226.38,040120,,,A*7B

BREAD,$GPRMC,091530.000,A,3907.6406,N,08431.6120,W,0.27,233.29,040120,,,A*7B

BREAD,$GPRMC,091531.000,A,3907.6406,N,08431.6120,W,0.27,238.09,040120,,,A*73

BREAD,$GPRMC,091532.000,A,3907.6405,N,08431.6121,W,0.25,203.22,040120,,,A*71

BREAD,$GPRMC,091533.000,A,3907.6405,N,08431.6121,W,0.27,197.14,040120,,,A*79

BREAD,$GPRMC,091534.000,A,3907.6404,N,08431.6122,W,0.28,183.35,040120,,,A*75

BREAD,$GPRMC,091535.000,A,3907.6403,N,08431.6122,W,0.21,183.37,040120,,,A*78

BREAD,$GPRMC,091536.000,A,3907.6403,N,08431.6122,W,0.31,178.64,040120,,,A*78

BREAD,$GPRMC,091537.000,A,3907.6402,N,08431.6122,W,0.38,188.27,040120,,,A*79

BREAD,$GPRMC,091538.000,A,3907.6401,N,08431.6122,W,0.49,185.42,040120,,,A*7D

BREAD,$GPRMC,091539.000,A,3907.6399,N,08431.6122,W,0.33,194.78,040120,,,A*7E

BREAD,$GPRMC,091540.000,A,3907.6398,N,08431.6123,W,0.21,214.61,040120,,,A*70

BREAD,$GPRMC,091541.000,A,3907.6398,N,08431.6123,W,0.16,267.52,040120,,,A*71

BREAD,$GPRMC,091542.000,A,3907.6398,N,08431.6123,W,0.05,240.05,040120,,,A*77

BREAD,$GPRMC,091543.000,A,3907.6398,N,08431.6124,W,0.08,172.55,040120,,,A*7B

BREAD,$GPRMC,091544.000,A,3907.6398,N,08431.6124,W,0.07,162.39,040120,,,A*78

BREAD,$GPRMC,091545.000,A,3907.6398,N,08431.6123,W,0.18,167.96,040120,,,A*70

BREAD,$GPRMC,091546.000,A,3907.6397,N,08431.6123,W,0.27,171.46,040120,,,A*7A

BREAD,$GPRMC,091547.000,A,3907.6396,N,08431.6123,W,0.15,203.82,040120,,,A*75

BREAD,$GPRMC,091548.000,A,3907.6396,N,08431.6123,W,0.11,215.59,040120,,,A*7F

BREAD,$GPRMC,091549.000,A,3907.6396,N,08431.6124,W,0.17,183.03,040120,,,A*7C

BREAD,$GPRMC,091550.000,A,3907.6395,N,08431.6124,W,0.09,222.13,040120,,,A*71

BREAD,$GPRMC,091551.000,A,3907.6395,N,08431.6124,W,0.20,158.24,040120,,,A*71

BREAD,$GPRMC,091552.000,A,3907.6394,N,08431.6124,W,0.08,175.54,040120,,,A*71

BREAD,$GPRMC,091553.000,A,3907.6394,N,08431.6124,W,0.13,213.80,040120,,,A*70

BREAD,$GPRMC,091554.000,A,3907.6394,N,08431.6124,W,0.20,240.85,040120,,,A*74

BREAD,$GPRMC,091555.000,A,3907.6394,N,08431.6125,W,0.30,226.53,040120,,,A*7E

BREAD,$GPRMC,091556.000,A,3907.6393,N,08431.6125,W,0.47,204.44,040120,,,A*7C
BREAD,$GPRMC,091557.000,A,3907.6392,N,08431.6126,W,0.49,202.69,040120,,,A*78

BREAD,$GPRMC,091558.000,A,3907.6391,N,08431.6127,W,0.41,219.37,040120,,,A*7C

BREAD,$GPRMC,091559.000,A,3907.6390,N,08431.6128,W,0.48,198.33,040120,,,A*74
BREAD,$GPRMC,091600.000,A,3907.6388,N,08431.6128,W,0.55,193.44,040120,,,A*75

BREAD,$GPRMC,091601.000,A,3907.6387,N,08431.6129,W,0.57,198.23,040120,,,A*72

BREAD,$GPRMC,091602.000,A,3907.6385,N,08431.6129,W,0.51,205.45,040120,,,A*72

BREAD,$GPRMC,091603.000,A,3907.6384,N,08431.6130,W,0.58,200.16,040120,,,A*70

BREAD,$GPRMC,091604.000,A,3907.6382,N,08431.6131,W,0.56,208.85,040120,,,A*7C

BREAD,$GPRMC,091605.000,A,3907.6381,N,08431.6132,W,0.51,212.01,040120,,,A*7D

BREAD,$GPRMC,091606.000,A,3907.6380,N,08431.6133,W,0.47,213.44,040120,,,A*79

BREAD,$GPRMC,091607.000,A,3907.6379,N,08431.6134,W,0.40,204.85,040120,,,A*75

BREAD,$GPRMC,091608.000,A,3907.6378,N,08431.6134,W,0.41,213.06,040120,,,A*77

BREAD,$GPRMC,091609.000,A,3907.6377,N,08431.6135,W,0.41,220.89,040120,,,A*7F

BREAD,$GPRMC,091610.000,A,3907.6376,N,08431.6136,W,0.42,220.70,040120,,,A*70

BREAD,$GPRMC,091611.000,A,3907.6375,N,08431.6137,W,0.40,213.03,040120,,,A*75

BREAD,$GPRMC,091612.000,A,3907.6374,N,08431.6138,W,0.41,196.92,040120,,,A*7F

BREAD,$GPRMC,091613.000,A,3907.6373,N,08431.6138,W,0.31,201.30,040120,,,A*7B

BREAD,$GPRMC,091614.000,A,3907.6373,N,08431.6138,W,0.19,226.95,040120,,,A*7C

BREAD,$GPRMC,091615.000,A,3907.6372,N,08431.6139,W,0.25,227.45,040120,,,A*7E

BREAD,$GPRMC,091616.000,A,3907.6372,N,08431.6140,W,0.28,255.31,040120,,,A*78
BREAD,$GPRMC,091617.000,A,3907.6372,N,08431.6140,W,0.28,251.26,040120,,,A*7B

BREAD,$GPRMC,091618.000,A,3907.6372,N,08431.6141,W,0.27,260.28,040120,,,A*76

BREAD,$GPRMC,091619.000,A,3907.6372,N,08431.6142,W,0.22,264.15,040120,,,A*7B

BREAD,$GPRMC,091620.000,A,3907.6372,N,08431.6143,W,0.18,228.24,040120,,,A*73

BREAD,$GPRMC,091621.000,A,3907.6371,N,08431.6143,W,0.17,209.02,040120,,,A*79

BREAD,$GPRMC,091622.000,A,3907.6371,N,08431.6144,W,0.18,201.23,040120,,,A*79

BREAD,$GPRMC,091623.000,A,3907.6370,N,08431.6144,W,0.10,178.09,040120,,,A*74

BREAD,$GPRMC,091624.000,A,3907.6370,N,08431.6144,W,0.01,54.16,040120,,,A*42

BREAD,$GPRMC,091625.000,A,3907.6370,N,08431.6144,W,0.06,325.11,040120,,,A*76

BREAD,$GPRMC,091626.000,A,3907.6370,N,08431.6144,W,0.13,221.74,040120,,,A*77

BREAD,$GPRMC,091627.000,A,3907.6370,N,08431.6144,W,0.19,207.11,040120,,,A*7B

BREAD,$GPRMC,091628.000,A,3907.6370,N,08431.6144,W,0.12,208.00,040120,,,A*70

BREAD,$GPRMC,091629.000,A,3907.6370,N,08431.6144,W,0.07,299.01,040120,,,A*7C

BREAD,$GPRMC,091630.000,A,3907.6370,N,08431.6145,W,0.07,327.24,040120,,,A*76

BREAD,$GPRMC,091631.000,A,3907.6370,N,08431.6145,W,0.18,340.76,040120,,,A*7F

BREAD,$GPRMC,091632.000,A,3907.6371,N,08431.6145,W,0.22,338.87,040120,,,A*75

BREAD,$GPRMC,091633.000,A,3907.6371,N,08431.6145,W,0.24,334.67,040120,,,A*70

BREAD,$GPRMC,091634.000,A,3907.6372,N,08431.6145,W,0.17,321.64,040120,,,A*73
BREAD,$GPRMC,091635.000,A,3907.6372,N,08431.6146,W,0.13,307.58,040120,,,A*7E

BREAD,$GPRMC,091636.000,A,3907.6372,N,08431.6146,W,0.12,313.15,040120,,,A*70

BREAD,$GPRMC,091637.000,A,3907.6372,N,08431.6146,W,0.13,333.24,040120,,,A*70

BREAD,$GPRMC,091638.000,A,3907.6373,N,08431.6147,W,0.23,331.23,040120,,,A*79

BREAD,$GPRMC,091639.000,A,3907.6373,N,08431.6147,W,0.13,355.93,040120,,,A*72

BREAD,$GPRMC,091640.000,A,3907.6374,N,08431.6147,W,0.23,41.73,040120,,,A*40

BREAD,$GPRMC,091641.000,A,3907.6374,N,08431.6146,W,0.25,34.65,040120,,,A*43

BREAD,$GPRMC,091642.000,A,3907.6375,N,08431.6146,W,0.17,40.28,040120,,,A*4A

BREAD,$GPRMC,091643.000,A,3907.6375,N,08431.6145,W,0.09,42.69,040120,,,A*40

BREAD,$GPRMC,091644.000,A,3907.6375,N,08431.6145,W,0.05,56.17,040120,,,A*47

BREAD,$GPRMC,091645.000,A,3907.6375,N,08431.6145,W,0.13,121.55,040120,,,A*76

BREAD,$GPRMC,091646.000,A,3907.6375,N,08431.6145,W,0.11,124.89,040120,,,A*73

BREAD,$GPRMC,091647.000,A,3907.6375,N,08431.6144,W,0.17,143.51,040120,,,A*71

BREAD,$GPRMC,091648.000,A,3907.6375,N,08431.6144,W,0.07,195.63,040120,,,A*75

BREAD,$GPRMC,091649.000,A,3907.6375,N,08431.6144,W,0.13,166.49,040120,,,A*75

BREAD,$GPRMC,091650.000,A,3907.6374,N,08431.6144,W,0.08,195.55,040120,,,A*77

BREAD,$GPRMC,091651.000,A,3907.6374,N,08431.6144,W,0.06,197.52,040120,,,A*7D

BREAD,$GPRMC,091652.000,A,3907.6374,N,08431.6144,W,0.14,307.43,040120,,,A*76

BREAD,$GPRMC,091653.000,A,3907.6374,N,08431.6145,W,0.14,321.00,040120,,,A*75

BREAD,$GPRMC,091654.000,A,3907.6375,N,08431.6145,W,0.11,330.30,040120,,,A*75

BREAD,$GPRMC,091655.000,A,3907.6375,N,08431.6145,W,0.26,336.94,040120,,,A*78

BREAD,$GPRMC,091656.000,A,3907.6376,N,08431.6145,W,0.25,2.51,040120,,,A*76

BREAD,$GPRMC,091657.000,A,3907.6377,N,08431.6145,W,0.23,19.71,040120,,,A*48

BREAD,$GPRMC,091658.000,A,3907.6377,N,08431.6145,W,0.16,25.84,040120,,,A*44

BREAD,$GPRMC,091659.000,A,3907.6378,N,08431.6144,W,0.27,25.78,040120,,,A*4A

BREAD,$GPRMC,091700.000,A,3907.6379,N,08431.6144,W,0.27,32.35,040120,,,A*49

BREAD,$GPRMC,091701.000,A,3907.6379,N,08431.6143,W,0.26,28.04,040120,,,A*47

BREAD,$GPRMC,091702.000,A,3907.6380,N,08431.6143,W,0.27,19.66,040120,,,A*45

BREAD,$GPRMC,091703.000,A,3907.6381,N,08431.6143,W,0.18,20.75,040120,,,A*41

BREAD,$GPRMC,091704.000,A,3907.6381,N,08431.6142,W,0.11,13.87,040120,,,A*43

BREAD,$GPRMC,091705.000,A,3907.6381,N,08431.6142,W,0.16,14.66,040120,,,A*4D

BREAD,$GPRMC,091706.000,A,3907.6382,N,08431.6142,W,0.22,9.49,040120,,,A*7B

BREAD,$GPRMC,091707.000,A,3907.6383,N,08431.6142,W,0.24,8.56,040120,,,A*72

BREAD,$GPRMC,091708.000,A,3907.6383,N,08431.6142,W,0.26,10.64,040120,,,A*47

BREAD,$GPRMC,091709.000,A,3907.6384,N,08431.6142,W,0.20,16.93,040120,,,A*49

BREAD,$GPRMC,091710.000,A,3907.6385,N,08431.6141,W,0.16,39.95,040120,,,A*4D

BREAD,$GPRMC,091711.000,A,3907.6385,N,08431.6141,W,0.14,68.56,040120,,,A*45

BREAD,$GPRMC,091712.000,A,3907.6385,N,08431.6140,W,0.15,86.97,040120,,,A*4B

BREAD,$GPRMC,091713.000,A,3907.6385,N,08431.6140,W,0.16,86.98,040120,,,A*46

BREAD,$GPRMC,091714.000,A,3907.6385,N,08431.6139,W,0.13,27.65,040120,,,A*43
BREAD,$GPRMC,091715.000,A,3907.6386,N,08431.6139,W,0.12,355.68,040120,,,A*7B

BREAD,$GPRMC,091716.000,A,3907.6386,N,08431.6139,W,0.15,351.29,040120,,,A*7E

BREAD,$GPRMC,091717.000,A,3907.6387,N,08431.6139,W,0.09,40.53,040120,,,A*4D

BREAD,$GPRMC,091718.000,A,3907.6387,N,08431.6139,W,0.10,51.87,040120,,,A*43

BREAD,$GPRMC,091719.000,A,3907.6387,N,08431.6138,W,0.06,33.45,040120,,,A*4E

BREAD,$GPRMC,091720.000,A,3907.6387,N,08431.6138,W,0.03,12.06,040120,,,A*45

BREAD,$GPRMC,091721.000,A,3907.6387,N,08431.6138,W,0.06,7.30,040120,,,A*70

BREAD,$GPRMC,091722.000,A,3907.6388,N,08431.6138,W,0.04,58.06,040120,,,A*41

BREAD,$GPRMC,091723.000,A,3907.6388,N,08431.6138,W,0.15,132.01,040120,,,A*7A

BREAD,$GPRMC,091724.000,A,3907.6387,N,08431.6138,W,0.05,102.10,040120,,,A*70

BREAD,$GPRMC,091725.000,A,3907.6387,N,08431.6137,W,0.04,177.34,040120,,,A*7B

BREAD,$GPRMC,091726.000,A,3907.6387,N,08431.6137,W,0.14,245.48,040120,,,A*70

BREAD,$GPRMC,091727.000,A,3907.6387,N,08431.6138,W,0.25,276.30,040120,,,A*73

BREAD,$GPRMC,091728.000,A,3907.6387,N,08431.6139,W,0.16,254.17,040120,,,A*78

BREAD,$GPRMC,091729.000,A,3907.6387,N,08431.6139,W,0.10,296.97,040120,,,A*79

BREAD,$GPRMC,091730.000,A,3907.6387,N,08431.6139,W,0.09,4.91,040120,,,A*76

BREAD,$GPRMC,091731.000,A,3907.6387,N,08431.6139,W,0.09,18.31,040120,,,A*40

BREAD,$GPRMC,091732.000,A,3907.6388,N,08431.6139,W,0.05,223.60,040120,,,A*7E

BREAD,$GPRMC,091733.000,A,3907.6388,N,08431.6139,W,0.13,265.54,040120,,,A*7D

BREAD,$GPRMC,091734.000,A,3907.6387,N,08431.6140,W,0.14,255.95,040120,,,A*72

BREAD,$GPRMC,091735.000,A,3907.6387,N,08431.6140,W,0.09,220.78,040120,,,A*7E

BREAD,$GPRMC,091736.000,A,3907.6387,N,08431.6141,W,0.16,218.76,040120,,,A*77

BREAD,$GPRMC,091737.000,A,3907.6387,N,08431.6141,W,0.08,222.49,040120,,,A*7C

BREAD,$GPRMC,091738.000,A,3907.6387,N,08431.6141,W,0.03,255.59,040120,,,A*79

BREAD,$GPRMC,091739.000,A,3907.6387,N,08431.6141,W,0.16,320.84,040120,,,A*7F

BREAD,$GPRMC,091740.000,A,3907.6387,N,08431.6141,W,0.20,336.76,040120,,,A*7E

BREAD,$GPRMC,091741.000,A,3907.6388,N,08431.6142,W,0.05,266.96,040120,,,A*7E

BREAD,$GPRMC,091742.000,A,3907.6388,N,08431.6142,W,0.09,200.87,040120,,,A*71

BREAD,$GPRMC,091743.000,A,3907.6388,N,08431.6142,W,0.13,181.78,040120,,,A*71

BREAD,$GPRMC,091744.000,A,3907.6387,N,08431.6142,W,0.03,189.38,040120,,,A*74

BREAD,$GPRMC,091745.000,A,3907.6387,N,08431.6142,W,0.11,120.67,040120,,,A*7F

BREAD,$GPRMC,091746.000,A,3907.6387,N,08431.6142,W,0.08,76.31,040120,,,A*45

BREAD,$GPRMC,091747.000,A,3907.6387,N,08431.6141,W,0.09,67.60,040120,,,A*42

BREAD,$GPRMC,091748.000,A,3907.6387,N,08431.6141,W,0.13,100.28,040120,,,A*7A

BREAD,$GPRMC,091749.000,A,3907.6387,N,08431.6141,W,0.29,136.46,040120,,,A*7F

BREAD,$GPRMC,091750.000,A,3907.6386,N,08431.6140,W,0.20,133.40,040120,,,A*7D

BREAD,$GPRMC,091751.000,A,3907.6386,N,08431.6139,W,0.15,135.97,040120,,,A*78

BREAD,$GPRMC,091752.000,A,3907.6386,N,08431.6139,W,0.14,157.45,040120,,,A*71

BREAD,$GPRMC,091753.000,A,3907.6385,N,08431.6139,W,0.23,160.06,040120,,,A*74

BREAD,$GPRMC,091754.000,A,3907.6385,N,08431.6139,W,0.25,154.49,040120,,,A*79

BREAD,$GPRMC,091755.000,A,3907.6384,N,08431.6138,W,0.24,167.00,040120,,,A*74

BREAD,$GPRMC,091756.000,A,3907.6383,N,08431.6138,W,0.28,176.29,040120,,,A*77

BREAD,$GPRMC,091757.000,A,3907.6383,N,08431.6138,W,0.26,188.47,040120,,,A*71

BREAD,$GPRMC,091758.000,A,3907.6382,N,08431.6138,W,0.30,193.01,040120,,,A*70

BREAD,$GPRMC,091759.000,A,3907.6381,N,08431.6138,W,0.23,169.34,040120,,,A*73

BREAD,$GPRMC,091800.000,A,3907.6381,N,08431.6138,W,0.27,150.33,040120,,,A*79

BREAD,$GPRMC,091801.000,A,3907.6380,N,08431.6138,W,0.14,150.06,040120,,,A*7F

BREAD,$GPRMC,091802.000,A,3907.6380,N,08431.6137,W,0.08,198.56,040120,,,A*7F

BREAD,$GPRMC,091803.000,A,3907.6380,N,08431.6138,W,0.09,280.26,040120,,,A*7D

BREAD,$GPRMC,091804.000,A,3907.6380,N,08431.6138,W,0.10,248.17,040120,,,A*74

BREAD,$GPRMC,091805.000,A,3907.6380,N,08431.6138,W,0.13,227.94,040120,,,A*74

BREAD,$GPRMC,091806.000,A,3907.6380,N,08431.6139,W,0.18,263.18,040120,,,A*79

BREAD,$GPRMC,091807.000,A,3907.6380,N,08431.6139,W,0.19,243.00,040120,,,A*72

BREAD,$GPRMC,091808.000,A,3907.6380,N,08431.6140,W,0.04,248.34,040120,,,A*73

BREAD,$GPRMC,091809.000,A,3907.6380,N,08431.6140,W,0.18,349.13,040120,,,A*7A

BREAD,$GPRMC,091810.000,A,3907.6380,N,08431.6140,W,0.21,331.74,040120,,,A*76

BREAD,$GPRMC,091811.000,A,3907.6381,N,08431.6140,W,0.08,296.18,040120,,,A*7B

BREAD,$GPRMC,091812.000,A,3907.6381,N,08431.6141,W,0.11,274.14,040120,,,A*71

BREAD,$GPRMC,091813.000,A,3907.6381,N,08431.6141,W,0.13,272.35,040120,,,A*77

BREAD,$GPRMC,091814.000,A,3907.6381,N,08431.6142,W,0.18,259.16,040120,,,A*70

BREAD,$GPRMC,091815.000,A,3907.6381,N,08431.6142,W,0.24,263.23,040120,,,A*71

BREAD,$GPRMC,091816.000,A,3907.6381,N,08431.6143,W,0.16,262.32,040120,,,A*73

BREAD,$GPRMC,091817.000,A,3907.6381,N,08431.6144,W,0.14,256.60,040120,,,A*77

BREAD,$GPRMC,091818.000,A,3907.6381,N,08431.6144,W,0.18,257.45,040120,,,A*72

BREAD,$GPRMC,091819.000,A,3907.6380,N,08431.6145,W,0.11,263.94,040120,,,A*71

BREAD,$GPRMC,091820.000,A,3907.6380,N,08431.6145,W,0.06,195.19,040120,,,A*72

BREAD,$GPRMC,091821.000,A,3907.6380,N,08431.6145,W,0.10,271.04,040120,,,A*71

BREAD,$GPRMC,091822.000,A,3907.6380,N,08431.6145,W,0.04,206.92,040120,,,A*78

BREAD,$GPRMC,091823.000,A,3907.6380,N,08431.6145,W,0.05,227.91,040120,,,A*78

BREAD,$GPRMC,091824.000,A,3907.6380,N,08431.6146,W,0.10,166.25,040120,,,A*71

BREAD,$GPRMC,091825.000,A,3907.6380,N,08431.6145,W,0.07,190.08,040120,,,A*73

BREAD,$GPRMC,091826.000,A,3907.6380,N,08431.6145,W,0.09,164.54,040120,,,A*7C

BREAD,$GPRMC,091827.000,A,3907.6380,N,08431.6145,W,0.06,297.47,040120,,,A*7F
BREAD,$GPRMC,091828.000,A,3907.6380,N,08431.6145,W,0.15,329.87,040120,,,A*7A

BREAD,$GPRMC,091829.000,A,3907.6380,N,08431.6146,W,0.19,349.44,040120,,,A*7D

BREAD,$GPRMC,091830.000,A,3907.6381,N,08431.6146,W,0.09,38.01,040120,,,A*41

BREAD,$GPRMC,091831.000,A,3907.6381,N,08431.6146,W,0.10,64.45,040120,,,A*41

BREAD,$GPRMC,091832.000,A,3907.6381,N,08431.6145,W,0.04,4.61,040120,,,A*74

BREAD,$GPRMC,091833.000,A,3907.6381,N,08431.6145,W,0.11,346.84,040120,,,A*7F

BREAD,$GPRMC,091834.000,A,3907.6381,N,08431.6145,W,0.22,12.88,040120,,,A*46

BREAD,$GPRMC,091835.000,A,3907.6382,N,08431.6145,W,0.11,15.93,040120,,,A*49

BREAD,$GPRMC,091836.000,A,3907.6382,N,08431.6145,W,0.07,39.11,040120,,,A*49

BREAD,$GPRMC,091837.000,A,3907.6383,N,08431.6145,W,0.02,322.68,040120,,,A*7B

BREAD,$GPRMC,091838.000,A,3907.6383,N,08431.6145,W,0.15,159.07,040120,,,A*75

BREAD,$GPRMC,091839.000,A,3907.6382,N,08431.6145,W,0.10,145.43,040120,,,A*7D

BREAD,$GPRMC,091840.000,A,3907.6382,N,08431.6144,W,0.11,101.72,040120,,,A*71

BREAD,$GPRMC,091841.000,A,3907.6382,N,08431.6144,W,0.15,69.22,040120,,,A*4E

BREAD,$GPRMC,091842.000,A,3907.6382,N,08431.6143,W,0.19,85.97,040120,,,A*4A

BREAD,$GPRMC,091843.000,A,3907.6382,N,08431.6142,W,0.16,64.07,040120,,,A*43

BREAD,$GPRMC,091844.000,A,3907.6383,N,08431.6142,W,0.23,57.24,040120,,,A*42

BREAD,$GPRMC,091845.000,A,3907.6383,N,08431.6141,W,0.25,33.18,040120,,,A*4B

BREAD,$GPRMC,091846.000,A,3907.6384,N,08431.6141,W,0.26,28.66,040120,,,A*4F

BREAD,$GPRMC,091847.000,A,3907.6384,N,08431.6140,W,0.13,42.06,040120,,,A*43

BREAD,$GPRMC,091848.000,A,3907.6384,N,08431.6140,W,0.02,50.75,040120,,,A*4B

BREAD,$GPRMC,091849.000,A,3907.6384,N,08431.6140,W,0.10,173.81,040120,,,A*72

BREAD,$GPRMC,091850.000,A,3907.6384,N,08431.6140,W,0.12,182.49,040120,,,A*72

BREAD,$GPRMC,091851.000,A,3907.6384,N,08431.6140,W,0.16,194.48,040120,,,A*71

BREAD,$GPRMC,091852.000,A,3907.6383,N,08431.6140,W,0.21,190.15,040120,,,A*7D

BREAD,$GPRMC,091853.000,A,3907.6382,N,08431.6140,W,0.17,234.70,040120,,,A*76

BREAD,$GPRMC,091854.000,A,3907.6382,N,08431.6141,W,0.17,254.00,040120,,,A*71

BREAD,$GPRMC,091855.000,A,3907.6382,N,08431.6142,W,0.20,238.97,040120,,,A*73

BREAD,$GPRMC,091856.000,A,3907.6382,N,08431.6142,W,0.34,261.16,040120,,,A*70

BREAD,$GPRMC,091857.000,A,3907.6381,N,08431.6143,W,0.44,265.30,040120,,,A*74

BREAD,$GPRMC,091858.000,A,3907.6381,N,08431.6145,W,0.44,249.35,040120,,,A*76

BREAD,$GPRMC,091859.000,A,3907.6381,N,08431.6147,W,0.44,263.37,040120,,,A*7F

BREAD,$GPRMC,091900.000,A,3907.6381,N,08431.6148,W,0.35,228.29,040120,,,A*7B

BREAD,$GPRMC,091901.000,A,3907.6380,N,08431.6149,W,0.35,226.44,040120,,,A*7F

BREAD,$GPRMC,091902.000,A,3907.6379,N,08431.6150,W,0.33,243.98,040120,,,A*76

BREAD,$GPRMC,091903.000,A,3907.6379,N,08431.6151,W,0.30,245.61,040120,,,A*75

BREAD,$GPRMC,091904.000,A,3907.6379,N,08431.6152,W,0.27,226.36,040120,,,A*70

BREAD,$GPRMC,091905.000,A,3907.6378,N,08431.6153,W,0.25,225.57,040120,,,A*77

BREAD,$GPRMC,091906.000,A,3907.6378,N,08431.6153,W,0.26,227.45,040120,,,A*76

BREAD,$GPRMC,091907.000,A,3907.6377,N,08431.6154,W,0.24,210.07,040120,,,A*7F

BREAD,$GPRMC,091908.000,A,3907.6377,N,08431.6154,W,0.21,230.17,040120,,,A*76

BREAD,$GPRMC,091909.000,A,3907.6376,N,08431.6155,W,0.20,222.84,040120,,,A*7F

BREAD,$GPRMC,091910.000,A,3907.6376,N,08431.6155,W,0.22,247.36,040120,,,A*7F

BREAD,$GPRMC,091911.000,A,3907.6376,N,08431.6156,W,0.24,230.55,040120,,,A*7E

BREAD,$GPRMC,091912.000,A,3907.6375,N,08431.6157,W,0.28,256.03,040120,,,A*70

BREAD,$GPRMC,091913.000,A,3907.6375,N,08431.6158,W,0.24,250.32,040120,,,A*76

BREAD,$GPRMC,091914.000,A,3907.6375,N,08431.6158,W,0.29,258.80,040120,,,A*7D

BREAD,$GPRMC,091915.000,A,3907.6375,N,08431.6159,W,0.33,244.93,040120,,,A*79
BREAD,$GPRMC,091916.000,A,3907.6374,N,08431.6161,W,0.43,247.06,040120,,,A*78

BREAD,$GPRMC,091917.000,A,3907.6374,N,08431.6162,W,0.46,248.16,040120,,,A*71

BREAD,$GPRMC,091918.000,A,3907.6373,N,08431.6164,W,0.43,214.00,040120,,,A*74

BREAD,$GPRMC,091919.000,A,3907.6372,N,08431.6164,W,0.36,229.39,040120,,,A*72

BREAD,$GPRMC,091920.000,A,3907.6372,N,08431.6165,W,0.37,205.90,040120,,,A*75

BREAD,$GPRMC,091921.000,A,3907.6371,N,08431.6166,W,0.39,191.52,040120,,,A*7A

BREAD,$GPRMC,091922.000,A,3907.6370,N,08431.6166,W,0.30,213.23,040120,,,A*7E

BREAD,$GPRMC,091924.000,A,3907.6368,N,08431.6167,W,0.29,216.73,040120,,,A*78

BREAD,$GPRMC,091925.000,A,3907.6367,N,08431.6168,W,0.29,233.62,040120,,,A*7E

BREAD,$GPRMC,091926.000,A,3907.6367,N,08431.6169,W,0.29,243.91,040120,,,A*77

BREAD,$GPRMC,091927.000,A,3907.6367,N,08431.6170,W,0.29,232.62,040120,,,A*74

BREAD,$GPRMC,091928.000,A,3907.6366,N,08431.6170,W,0.32,233.87,040120,,,A*7A

BREAD,$GPRMC,091929.000,A,3907.6365,N,08431.6171,W,0.36,234.85,040120,,,A*78

BREAD,$GPRMC,091930.000,A,3907.6365,N,08431.6172,W,0.39,223.25,040120,,,A*70

BREAD,$GPRMC,091931.000,A,3907.6364,N,08431.6173,W,0.40,237.59,040120,,,A*71

BREAD,$GPRMC,091932.000,A,3907.6363,N,08431.6175,W,0.43,221.20,040120,,,A*79

BREAD,$GPRMC,091933.000,A,3907.6362,N,08431.6176,W,0.46,211.82,040120,,,A*74

BREAD,$GPRMC,091934.000,A,3907.6361,N,08431.6176,W,0.37,221.07,040120,,,A*78
BREAD,$GPRMC,091935.000,A,3907.6361,N,08431.6177,W,0.35,211.81,040120,,,A*77

